[ { "ID": 1, "Name": "樂麵屋-南港店", "Phone": "11:00~21:30", "Time": "11:00~21:30", "Location": "115台北市南港區經貿二路166號、2樓", "Category": "麵食", "MenuURL": "http://rakumenya.com.tw/menu.php", "FBURL": "https://www.facebook.com/rakumenya" }, { "ID": 2, "Name": "拿坡里披薩", "Phone": "11:00~22:00", "Time": "11:00~22:00", "Location": "115台北市南港區三重路7號", "Category": "PIZZA", "MenuURL": "https://www.0800076666.com.tw/mainfood.aspx?classType=PIZZAPD'", "FBURL": "https://www.0800076666.com.tw/mainfood.aspx?classType=PIZZAPD" }, { "ID": 3, "Name": "拉亞漢堡-南港展覽館", "Phone": "07:30-18:00(一到五、六日不營業)", "Time": "07:30-18:00(一到五、六日不營業)", "Location": "115台北市南港區經貿二路1號", "Category": "早午餐", "MenuURL": "https://www.0800076666.com.tw/mainfood.aspx?classType=PIZZAPD", "FBURL": "https://www.0800076666.com.tw/mainfood.aspx?classType=PIZZAPD" }, { "ID": 4, "Name": "臭臭鍋-南港店", "Phone": "11:00~14:30、17:00~21:00 (禮拜六不營業)", "Time": "11:00~14:30、17:00~21:00 (禮拜六不營業)", "Location": "115台北市南港區南港路一段229號", "Category": "火鍋", "MenuURL": "http://www.8pot.com.tw/", "FBURL": "無" }, { "ID": 5, "Name": "歡樂牛排", "Phone": "11:00~22:00", "Time": "11:00~22:00", "Location": "115台北市南港區南港路一段170號", "Category": "牛排", "MenuURL": "http://www.happysteak.com.tw/cate/cate.htm", "FBURL": "https://zh-tw.facebook.com/pages/%E6%AD%A1%E6%A8%82%E7%89%9B%E6%8E%92%E5%8D%97%E6%B8%AF%E5%BA%97%E5%A5%BD%E5%90%83%E5%94%B7/573776456021685" }, { "ID": 6, "Name": "TEST", "Phone": "TEST", "Time": "TEST", "Location": "TEST", "Category": "TEST", "MenuURL": "TEST", "FBURL": "TEST" }, { "ID": 7, "Name": "TEST", "Phone": "TEST", "Time": "TEST", "Location": "TEST", "Category": "TEST", "MenuURL": "TEST", "FBURL": "TEST" }, { "ID": 8, "Name": "TEST", "Phone": "TEST", "Time": "TEST", "Location": "TEST", "Category": "TEST", "MenuURL": "TEST", "FBURL": "TEST" }, { "ID": 9, "Name": "TEST", "Phone": "TEST", "Time": "TEST", "Location": "TEST", "Category": "TEST", "MenuURL": "TEST", "FBURL": "TEST" } ]